{
  "source": "OVERPASS",
  "generated_at": "2026-05-03T06:12:15.673Z",
  "request": {
    "url": "https://overpass-api.de/api/interpreter",
    "method": "POST",
    "metadata": {
      "aoi": "Strait of Hormuz demo AOI",
      "bbox": [
        54.4,
        24.5,
        57.8,
        27.2
      ],
      "endpoint": "https://overpass-api.de/api/interpreter"
    }
  },
  "response": {
    "ok": true,
    "status": 200,
    "statusText": "OK",
    "contentType": "application/json",
    "bytes": 71957
  },
  "body": {
    "version": 0.6,
    "generator": "Overpass API 0.7.62.11 87bfad18",
    "osm3s": {
      "timestamp_osm_base": "2026-05-03T06:11:19Z",
      "copyright": "The data included in this document is from www.openstreetmap.org. The data is made available under ODbL."
    },
    "elements": [
      {
        "type": "node",
        "id": 315524193,
        "lat": 25.2649926,
        "lon": 55.2952522,
        "tags": {
          "amenity": "ferry_terminal",
          "ferry": "yes",
          "name": "Dubai Old Souk - Abra dock",
          "name:en": "Dubai Old Souk - Abra dock",
          "name:zh": "老渡口",
          "public_transport": "station",
          "wheelchair": "limited"
        }
      },
      {
        "type": "node",
        "id": 315524198,
        "lat": 25.2672604,
        "lon": 55.3031626,
        "tags": {
          "amenity": "ferry_terminal",
          "ferry": "yes",
          "name": "Al Sabkha Abra terminal (North)",
          "name:en": "Al Sabkha Abra terminal (North)",
          "public_transport": "station",
          "wheelchair": "limited"
        }
      },
      {
        "type": "node",
        "id": 1058645690,
        "lat": 24.6446522,
        "lon": 54.6578377,
        "tags": {
          "amenity": "ferry_terminal"
        }
      },
      {
        "type": "node",
        "id": 1204090485,
        "lat": 26.9516325,
        "lon": 55.7523162,
        "tags": {
          "amenity": "ferry_terminal",
          "name": "اسکله لافت",
          "name:en": "Eskeleye Bandare Laft, Gheshm (Qeshm)",
          "name:fa": "اسکله بندر لافت قشم",
          "name:ru": "Паромная переправа"
        }
      },
      {
        "type": "node",
        "id": 1293791037,
        "lat": 26.4772593,
        "lon": 56.5382758,
        "tags": {
          "seamark:information": "Light and Racon obscured by As Salamah Island 133°-142° and Fanaku Island 156°-160°45´.",
          "seamark:landmark:height": "79",
          "seamark:light:character": "Fl",
          "seamark:light:colour": "white",
          "seamark:light:group": "2",
          "seamark:light:height": "60",
          "seamark:light:period": "10",
          "seamark:light:range": "23",
          "seamark:light:reference": "D 7335",
          "seamark:light:sequence": "0.2+(1.6)+0.2+(8)",
          "seamark:name": "Didamar.",
          "seamark:radar_transponder:category": "racon",
          "seamark:radar_transponder:group": "Q",
          "seamark:type": "landmark",
          "source": "US NGA Pub. 112. 2009-11-12."
        }
      },
      {
        "type": "node",
        "id": 1293791045,
        "lat": 25.6155124,
        "lon": 56.2965852,
        "tags": {
          "seamark:light:character": "Oc",
          "seamark:light:colour": "red",
          "seamark:light:period": "2.5",
          "seamark:light:reference": "D 7333",
          "seamark:type": "light_minor",
          "source": "US NGA Pub. 112. 2009-11-12."
        }
      },
      {
        "type": "node",
        "id": 1293791553,
        "lat": 27.0853833,
        "lon": 56.8029333,
        "tags": {
          "seamark:light:character": "Fl",
          "seamark:light:colour": "white",
          "seamark:light:height": "2",
          "seamark:light:period": "3",
          "seamark:light:range": "7",
          "seamark:light:reference": "D 7710",
          "seamark:name": "Khowr-e Minab",
          "seamark:type": "light_minor",
          "source": "US NGA Pub. 112. 2009-11-12."
        }
      },
      {
        "type": "node",
        "id": 1293791566,
        "lat": 27.1295322,
        "lon": 56.2064867,
        "tags": {
          "seamark:light:character": "Iso",
          "seamark:light:colour": "green",
          "seamark:light:height": "6",
          "seamark:light:period": "4",
          "seamark:light:range": "5",
          "seamark:light:reference": "D 7709",
          "seamark:name": "Bandar ‘Abbas",
          "seamark:type": "light_minor",
          "source": "US NGA Pub. 112. 2009-11-12."
        }
      },
      {
        "type": "node",
        "id": 1293791575,
        "lat": 27.1285712,
        "lon": 56.2020047,
        "tags": {
          "seamark:light:character": "Iso",
          "seamark:light:colour": "red",
          "seamark:light:height": "6",
          "seamark:light:period": "4",
          "seamark:light:range": "6",
          "seamark:light:reference": "D 7709.2",
          "seamark:type": "light_minor",
          "source": "US NGA Pub. 112. 2009-11-12."
        }
      },
      {
        "type": "node",
        "id": 1293791614,
        "lat": 27.1381417,
        "lon": 56.2058402,
        "tags": {
          "seamark:light:character": "Fl",
          "seamark:light:colour": "green",
          "seamark:light:height": "3",
          "seamark:light:period": "5",
          "seamark:light:reference": "D 7709.7",
          "seamark:type": "light_minor",
          "source": "US NGA Pub. 112. 2009-11-12."
        }
      },
      {
        "type": "node",
        "id": 1293791620,
        "lat": 27.1381035,
        "lon": 56.2028891,
        "tags": {
          "seamark:light:character": "Q",
          "seamark:light:colour": "red",
          "seamark:light:height": "3",
          "seamark:light:reference": "D 7709.6",
          "seamark:type": "light_minor",
          "source": "US NGA Pub. 112. 2009-11-12."
        }
      },
      {
        "type": "node",
        "id": 1293791633,
        "lat": 27.0952,
        "lon": 56.0404,
        "tags": {
          "seamark:light:category": "lower",
          "seamark:light:character": "Oc",
          "seamark:light:colour": "white",
          "seamark:light:height": "24",
          "seamark:light:period": "4",
          "seamark:light:range": "12",
          "seamark:light:reference": "D 7707",
          "seamark:type": "light_minor",
          "source": "US NGA Pub. 112. 2009-11-12."
        }
      },
      {
        "type": "node",
        "id": 1293791640,
        "lat": 27.0997167,
        "lon": 56.0200333,
        "tags": {
          "seamark:light:category": "upper",
          "seamark:light:character": "Oc",
          "seamark:light:colour": "white",
          "seamark:light:height": "44",
          "seamark:light:period": "4",
          "seamark:light:range": "12",
          "seamark:light:reference": "D 7707.1",
          "seamark:type": "light_minor",
          "source": "US NGA Pub. 112. 2009-11-12."
        }
      },
      {
        "type": "node",
        "id": 1293791650,
        "lat": 27.1215503,
        "lon": 56.0922,
        "tags": {
          "seamark:light:1:character": "Iso",
          "seamark:light:1:colour": "white",
          "seamark:light:1:height": "33",
          "seamark:light:1:period": "2",
          "seamark:light:1:range": "15",
          "seamark:light:1:sector_end": "272.7",
          "seamark:light:1:sector_start": "271.3",
          "seamark:light:2:character": "Iso",
          "seamark:light:2:colour": "red",
          "seamark:light:2:height": "33",
          "seamark:light:2:period": "2",
          "seamark:light:2:range": "15",
          "seamark:light:2:sector_end": "273.7",
          "seamark:light:2:sector_start": "272.7",
          "seamark:light:3:character": "Iso",
          "seamark:light:3:colour": "green",
          "seamark:light:3:height": "33",
          "seamark:light:3:period": "2",
          "seamark:light:3:range": "15",
          "seamark:light:3:sector_end": "271.3",
          "seamark:light:3:sector_start": "270.3",
          "seamark:light:reference": "D 7707.5",
          "seamark:name": "Hormozgan",
          "seamark:radar_transponder:category": "racon",
          "seamark:radar_transponder:group": "C",
          "seamark:type": "light_major",
          "source": "US NGA Pub. 112. 2009-11-12."
        }
      },
      {
        "type": "node",
        "id": 1293791671,
        "lat": 27.089847,
        "lon": 56.0727201,
        "tags": {
          "seamark:light:character": "Fl",
          "seamark:light:colour": "green",
          "seamark:light:period": "3",
          "seamark:light:reference": "D 7708",
          "seamark:type": "light_minor",
          "source": "US NGA Pub. 112. 2009-11-12."
        }
      },
      {
        "type": "node",
        "id": 1293791681,
        "lat": 27.0867167,
        "lon": 56.0693333,
        "tags": {
          "seamark:light:character": "Fl",
          "seamark:light:colour": "red",
          "seamark:light:period": "2",
          "seamark:light:reference": "D 7708.2",
          "seamark:type": "light_minor",
          "source": "US NGA Pub. 112. 2009-11-12."
        }
      },
      {
        "type": "node",
        "id": 1293791688,
        "lat": 27.0919316,
        "lon": 56.0680745,
        "tags": {
          "seamark:light:character": "Fl",
          "seamark:light:colour": "green",
          "seamark:light:group": "3",
          "seamark:light:period": "10",
          "seamark:light:reference": "D 7708.4",
          "seamark:type": "light_minor",
          "source": "US NGA Pub. 112. 2009-11-12."
        }
      },
      {
        "type": "node",
        "id": 1293791695,
        "lat": 27.0878667,
        "lon": 56.0643667,
        "tags": {
          "seamark:light:character": "Fl",
          "seamark:light:colour": "red",
          "seamark:light:group": "3",
          "seamark:light:period": "10",
          "seamark:light:reference": "D 7708.5",
          "seamark:type": "light_minor",
          "source": "US NGA Pub. 112. 2009-11-12."
        }
      },
      {
        "type": "node",
        "id": 1293791709,
        "lat": 26.8858398,
        "lon": 56.353638,
        "tags": {
          "name": "لارک",
          "seamark:light:character": "Fl",
          "seamark:light:colour": "white",
          "seamark:light:group": "2",
          "seamark:light:height": "40",
          "seamark:light:period": "10",
          "seamark:light:range": "18",
          "seamark:light:reference": "D 7337.5",
          "seamark:name": "Jazireh-ye Larak, N. coast.",
          "seamark:type": "landmark",
          "source": "US NGA Pub. 112. 2009-11-12."
        }
      },
      {
        "type": "node",
        "id": 1293791749,
        "lat": 26.3666286,
        "lon": 56.3612841,
        "tags": {
          "seamark:light:character": "Fl",
          "seamark:light:colour": "white",
          "seamark:light:height": "2",
          "seamark:light:period": "3",
          "seamark:light:range": "3",
          "seamark:light:reference": "D 7340.2",
          "seamark:light:sequence": "1+(2)",
          "seamark:name": "Ghabnat Karban",
          "seamark:radar_reflector": "yes",
          "seamark:type": "light_minor",
          "source": "US NGA Pub. 112. 2009-11-12."
        }
      },
      {
        "type": "node",
        "id": 1293791768,
        "lat": 26.3675187,
        "lon": 56.3619951,
        "tags": {
          "seamark:light:character": "Fl",
          "seamark:light:colour": "red",
          "seamark:light:height": "6",
          "seamark:light:period": "5",
          "seamark:light:range": "3",
          "seamark:light:reference": "D 7340.4",
          "seamark:type": "light_minor",
          "source": "US NGA Pub. 112. 2009-11-12."
        }
      },
      {
        "type": "node",
        "id": 1293791782,
        "lat": 26.367364,
        "lon": 56.3610302,
        "tags": {
          "seamark:light:character": "LFl",
          "seamark:light:colour": "red",
          "seamark:light:height": "6",
          "seamark:light:period": "10",
          "seamark:light:range": "3",
          "seamark:light:reference": "D 7340.5",
          "seamark:type": "light_minor",
          "source": "US NGA Pub. 112. 2009-11-12."
        }
      },
      {
        "type": "node",
        "id": 1293791797,
        "lat": 26.3644237,
        "lon": 56.3599063,
        "tags": {
          "seamark:light:character": "Fl",
          "seamark:light:colour": "white",
          "seamark:light:height": "2",
          "seamark:light:period": "3",
          "seamark:light:range": "3",
          "seamark:light:reference": "D 7340",
          "seamark:name": "Khawr Al Quway",
          "seamark:type": "light_minor",
          "source": "US NGA Pub. 112. 2009-11-12."
        }
      },
      {
        "type": "node",
        "id": 1293791799,
        "lat": 26.1502773,
        "lon": 56.1466448,
        "tags": {
          "seamark:light:character": "Iso",
          "seamark:light:colour": "green",
          "seamark:light:height": "7",
          "seamark:light:period": "2",
          "seamark:light:reference": "D 7334.8",
          "seamark:name": "Bukha",
          "seamark:type": "light_minor",
          "source": "US NGA Pub. 112. 2009-11-12."
        }
      },
      {
        "type": "node",
        "id": 1293791816,
        "lat": 26.1493464,
        "lon": 56.1462918,
        "tags": {
          "seamark:light:character": "Iso",
          "seamark:light:colour": "red",
          "seamark:light:height": "7",
          "seamark:light:period": "2",
          "seamark:light:range": "5",
          "seamark:light:reference": "D 7334.85",
          "seamark:type": "light_minor",
          "source": "US NGA Pub. 112. 2009-11-12."
        }
      },
      {
        "type": "node",
        "id": 1293791819,
        "lat": 26.0493148,
        "lon": 56.0823188,
        "tags": {
          "seamark:light:character": "Fl",
          "seamark:light:colour": "yellow",
          "seamark:light:group": "2",
          "seamark:light:height": "6",
          "seamark:light:period": "10",
          "seamark:light:range": "5",
          "seamark:light:reference": "D 7341",
          "seamark:name": "Al Jeeb",
          "seamark:type": "light_minor",
          "source": "US NGA Pub. 112. 2009-11-12."
        }
      },
      {
        "type": "node",
        "id": 1293791835,
        "lat": 26.0018624,
        "lon": 56.071025,
        "tags": {
          "seamark:light:character": "Fl",
          "seamark:light:colour": "yellow",
          "seamark:light:group": "3",
          "seamark:light:height": "6",
          "seamark:light:period": "15",
          "seamark:light:range": "5",
          "seamark:light:reference": "D 7344",
          "seamark:name": "Ghalilah",
          "seamark:type": "light_minor",
          "source": "US NGA Pub. 112. 2009-11-12."
        }
      },
      {
        "type": "node",
        "id": 1293791850,
        "lat": 26.0305521,
        "lon": 56.0790569,
        "tags": {
          "seamark:light:character": "Fl",
          "seamark:light:colour": "yellow",
          "seamark:light:height": "6",
          "seamark:light:period": "5",
          "seamark:light:range": "5",
          "seamark:light:reference": "D 7342",
          "seamark:name": "Sha'am",
          "seamark:type": "light_minor",
          "source": "US NGA Pub. 112. 2009-11-12."
        }
      },
      {
        "type": "node",
        "id": 1293791860,
        "lat": 25.8900462,
        "lon": 56.0077101,
        "tags": {
          "seamark:light:character": "Fl",
          "seamark:light:colour": "red",
          "seamark:light:group": "3",
          "seamark:light:height": "6",
          "seamark:light:period": "15",
          "seamark:light:range": "5",
          "seamark:light:reference": "D 7346",
          "seamark:name": "Rams",
          "seamark:type": "light_minor",
          "source": "US NGA Pub. 112. 2009-11-12."
        }
      },
      {
        "type": "node",
        "id": 1293791913,
        "lat": 26.2698448,
        "lon": 55.2983478,
        "tags": {
          "seamark:information": "Obscured 077°-080° by peak on Jazireh-ye-Tonb-e Kuchek.",
          "seamark:landmark:height": "82",
          "seamark:light:1:character": "Fl",
          "seamark:light:1:colour": "white",
          "seamark:light:1:height": "75",
          "seamark:light:1:period": "10",
          "seamark:light:1:range": "18",
          "seamark:light:1:sector_end": "77",
          "seamark:light:1:sector_start": "80",
          "seamark:light:1:sequence": "0.3+(9.7)",
          "seamark:light:reference": "D 7703",
          "seamark:name": "Jazireh-ye Tonb-e Bozorg.",
          "seamark:radar_transponder:category": "racon",
          "seamark:radar_transponder:group": "O",
          "seamark:type": "landmark",
          "source": "US NGA Pub. 112. 2009-11-12."
        }
      },
      {
        "type": "node",
        "id": 1293791937,
        "lat": 26.6571934,
        "lon": 55.2616313,
        "tags": {
          "seamark:light:character": "Fl",
          "seamark:light:colour": "white",
          "seamark:light:group": "2",
          "seamark:light:period": "10",
          "seamark:light:reference": "D 7701",
          "seamark:name": "Basa i du",
          "seamark:type": "light_minor",
          "source": "US NGA Pub. 112. 2009-11-12."
        }
      },
      {
        "type": "node",
        "id": 1293791949,
        "lat": 26.5370421,
        "lon": 55.2933742,
        "tags": {
          "seamark:light:character": "Fl",
          "seamark:light:colour": "white",
          "seamark:light:group": "3",
          "seamark:light:height": "12",
          "seamark:light:period": "12",
          "seamark:light:range": "7",
          "seamark:light:reference": "D 7700",
          "seamark:name": "Ras Dastakan",
          "seamark:type": "light_minor",
          "source": "US NGA Pub. 112. 2009-11-12."
        }
      },
      {
        "type": "node",
        "id": 1293791961,
        "lat": 26.240534,
        "lon": 55.152339,
        "tags": {
          "seamark:light:character": "Fl",
          "seamark:light:colour": "white",
          "seamark:light:height": "25",
          "seamark:light:period": "10",
          "seamark:light:range": "12",
          "seamark:light:reference": "D 7704",
          "seamark:name": "Jazireh-ye Tonb-e Kuchek.",
          "seamark:type": "light_major",
          "source": "US NGA Pub. 112. 2009-11-12."
        }
      },
      {
        "type": "node",
        "id": 1293791969,
        "lat": 25.9830511,
        "lon": 55.0165396,
        "tags": {
          "seamark:information": "Radar reflector.",
          "seamark:light:character": "Fl",
          "seamark:light:colour": "white",
          "seamark:light:period": "12",
          "seamark:light:range": "12",
          "seamark:light:reference": "D 7705.6",
          "seamark:name": "Abu Musa Light float.",
          "seamark:radar_reflector": "yes",
          "seamark:type": "light_float",
          "source": "US NGA Pub. 112. 2009-11-12."
        }
      },
      {
        "type": "node",
        "id": 1293791984,
        "lat": 25.8851894,
        "lon": 55.0344333,
        "tags": {
          "man_made": "mast",
          "seamark:light:character": "Fl",
          "seamark:light:colour": "white",
          "seamark:light:height": "130",
          "seamark:light:period": "8",
          "seamark:light:range": "9",
          "seamark:light:reference": "D 7706",
          "seamark:name": "Jazirat Abu Musa.",
          "seamark:type": "light_major",
          "source": "US NGA Pub. 112. 2009-11-12."
        }
      },
      {
        "type": "node",
        "id": 1293792017,
        "lat": 26.5095997,
        "lon": 54.6091299,
        "tags": {
          "seamark:light:character": "Fl",
          "seamark:light:colour": "white",
          "seamark:light:height": "29",
          "seamark:light:period": "10",
          "seamark:light:range": "10",
          "seamark:light:reference": "D 7698",
          "seamark:name": "Bostaneh.",
          "seamark:type": "light_major",
          "source": "US NGA Pub. 112. 2009-11-12."
        }
      },
      {
        "type": "node",
        "id": 1293792019,
        "lat": 26.2926848,
        "lon": 54.5014844,
        "tags": {
          "height": "17",
          "man_made": "lighthouse",
          "name": "فارور",
          "name:en": "farur",
          "seamark:information": "NE.",
          "seamark:light:character": "Fl",
          "seamark:light:colour": "white",
          "seamark:light:group": "2",
          "seamark:light:height": "170",
          "seamark:light:period": "10",
          "seamark:light:reference": "D 7695",
          "seamark:name": "Jazireh-ye Forur.",
          "seamark:radar_transponder:category": "racon",
          "seamark:radar_transponder:group": "M",
          "seamark:type": "light_major",
          "source": "US NGA Pub. 112. 2009-11-12."
        }
      },
      {
        "type": "node",
        "id": 1293792033,
        "lat": 25.9051246,
        "lon": 54.5516429,
        "tags": {
          "seamark:information": "Aero Radiobeacon about 900 meters SSW.",
          "seamark:light:character": "Fl",
          "seamark:light:colour": "white",
          "seamark:light:group": "3",
          "seamark:light:height": "30",
          "seamark:light:period": "15",
          "seamark:light:range": "10",
          "seamark:light:reference": "D 7697",
          "seamark:name": "Jazireh-ye Sirri.",
          "seamark:type": "light_major",
          "source": "US NGA Pub. 112. 2009-11-12."
        }
      },
      {
        "type": "node",
        "id": 1293792037,
        "lat": 25.8948716,
        "lon": 54.5377912,
        "tags": {
          "seamark:light:character": "Fl",
          "seamark:light:colour": "green",
          "seamark:light:group": "2",
          "seamark:light:height": "6",
          "seamark:light:period": "10",
          "seamark:light:range": "5",
          "seamark:light:reference": "D 7697.2",
          "seamark:name": "Jazireh-ye Sirri",
          "seamark:type": "light_minor",
          "source": "US NGA Pub. 112. 2009-11-12."
        }
      },
      {
        "type": "node",
        "id": 1293792043,
        "lat": 25.8941503,
        "lon": 54.5368153,
        "tags": {
          "seamark:light:character": "Fl",
          "seamark:light:colour": "red",
          "seamark:light:group": "2",
          "seamark:light:height": "6",
          "seamark:light:period": "10",
          "seamark:light:range": "5",
          "seamark:light:reference": "D 7697.4",
          "seamark:name": "Jazireh-ye Sirri",
          "seamark:type": "light_minor",
          "source": "US NGA Pub. 112. 2009-11-12."
        }
      },
      {
        "type": "node",
        "id": 1293793667,
        "lat": 25.1769837,
        "lon": 54.872,
        "tags": {
          "seamark:buoy_safe_water:colour": "red;white",
          "seamark:buoy_safe_water:colour_pattern": "vertical",
          "seamark:buoy_safe_water:shape": "pillar",
          "seamark:light:character": "LFl",
          "seamark:light:colour": "white",
          "seamark:light:height": "8",
          "seamark:light:period": "15",
          "seamark:light:reference": "D 7359",
          "seamark:name": "Jebel Ali",
          "seamark:radar_transponder:category": "racon",
          "seamark:radar_transponder:group": "X",
          "seamark:topmark:colour": "red",
          "seamark:topmark:shape": "sphere",
          "seamark:type": "buoy_safe_water",
          "source": "US NGA Pub. 112. 2009-11-12."
        }
      },
      {
        "type": "node",
        "id": 1293793668,
        "lat": 25.0205164,
        "lon": 55.0385177,
        "tags": {
          "seamark:light:character": "Fl",
          "seamark:light:colour": "green",
          "seamark:light:height": "14",
          "seamark:light:period": "5",
          "seamark:light:range": "8",
          "seamark:light:reference": "D 7360.4",
          "seamark:light:sequence": "0.5+(4.5)",
          "seamark:type": "light_minor",
          "source": "US NGA Pub. 112. 2009-11-12."
        }
      },
      {
        "type": "node",
        "id": 1293793673,
        "lat": 25.0175536,
        "lon": 55.073968,
        "tags": {
          "seamark:information": "R. lights on power station chimneys 3.2M and 3.7M NE.",
          "seamark:light:category": "aero",
          "seamark:light:character": "Oc",
          "seamark:light:colour": "red",
          "seamark:light:height": "58",
          "seamark:light:period": "3",
          "seamark:light:range": "20",
          "seamark:light:reference": "D 7360.2",
          "seamark:type": "light_minor",
          "source": "US NGA Pub. 112. 2009-11-12."
        }
      },
      {
        "type": "node",
        "id": 1293793674,
        "lat": 25.020792,
        "lon": 55.0754486,
        "tags": {
          "seamark:light:category": "aero",
          "seamark:light:character": "Oc",
          "seamark:light:colour": "red",
          "seamark:light:height": "58",
          "seamark:light:period": "3",
          "seamark:light:range": "20",
          "seamark:light:reference": "D 7360.22",
          "seamark:type": "light_minor",
          "source": "US NGA Pub. 112. 2009-11-12."
        }
      },
      {
        "type": "node",
        "id": 1293793675,
        "lat": 25.0325995,
        "lon": 55.0814591,
        "tags": {
          "seamark:light:character": "Fl",
          "seamark:light:colour": "green",
          "seamark:light:group": "2",
          "seamark:light:height": "6",
          "seamark:light:period": "10",
          "seamark:light:range": "5",
          "seamark:light:reference": "D 7360.6",
          "seamark:light:sequence": "1+(1)+1+(7)",
          "seamark:type": "light_minor",
          "source": "US NGA Pub. 112. 2009-11-12."
        }
      },
      {
        "type": "node",
        "id": 1293793676,
        "lat": 25.0319929,
        "lon": 55.082545,
        "tags": {
          "seamark:beacon_special_purpose:colour": "yellow",
          "seamark:light:character": "Fl",
          "seamark:light:colour": "yellow",
          "seamark:light:height": "6",
          "seamark:light:period": "5",
          "seamark:light:range": "7",
          "seamark:light:reference": "D 7360.65",
          "seamark:type": "beacon_special_purpose",
          "source": "US NGA Pub. 112. 2009-11-12."
        }
      },
      {
        "type": "node",
        "id": 1293793677,
        "lat": 25.0685857,
        "lon": 55.1221421,
        "tags": {
          "seamark:light:character": "Fl",
          "seamark:light:colour": "green",
          "seamark:light:group": "5",
          "seamark:light:height": "7",
          "seamark:light:period": "20",
          "seamark:light:range": "5",
          "seamark:light:reference": "D 7358.21",
          "seamark:type": "light_minor",
          "source": "US NGA Pub. 112. 2009-11-12."
        }
      },
      {
        "type": "node",
        "id": 1293793680,
        "lat": 25.1550316,
        "lon": 55.1974041,
        "tags": {
          "seamark:beacon_lateral:category": "starboard",
          "seamark:beacon_lateral:colour": "green",
          "seamark:beacon_lateral:system": "iala-a",
          "seamark:information": "Spur marked by Fl.(3)G. 20s.",
          "seamark:light:character": "Fl",
          "seamark:light:colour": "green",
          "seamark:light:group": "3",
          "seamark:light:period": "20",
          "seamark:light:reference": "D 7357.4",
          "seamark:name": "Maz Gam",
          "seamark:type": "beacon_lateral",
          "source": "US NGA Pub. 112. 2009-11-12."
        }
      },
      {
        "type": "node",
        "id": 1293793681,
        "lat": 25.1764245,
        "lon": 55.2150233,
        "tags": {
          "seamark:light:character": "Fl",
          "seamark:light:colour": "green",
          "seamark:light:period": "5",
          "seamark:light:reference": "D 7357.3",
          "seamark:name": "Umm Sagain",
          "seamark:type": "light_minor",
          "source": "US NGA Pub. 112. 2009-11-12."
        }
      },
      {
        "type": "node",
        "id": 1293793682,
        "lat": 25.204843,
        "lon": 55.2373089,
        "tags": {
          "seamark:beacon_lateral:category": "starboard",
          "seamark:beacon_lateral:colour": "green",
          "seamark:beacon_lateral:system": "iala-a",
          "seamark:light:character": "Q",
          "seamark:light:colour": "green",
          "seamark:light:reference": "D 7357.2",
          "seamark:name": "Al Rais",
          "seamark:topmark:colour": "green",
          "seamark:topmark:shape": "cone, point up",
          "seamark:type": "beacon_lateral",
          "source": "US NGA Pub. 112. 2009-11-12."
        }
      },
      {
        "type": "node",
        "id": 1293793686,
        "lat": 25.2131538,
        "lon": 55.2441823,
        "tags": {
          "seamark:beacon_lateral:category": "starboard",
          "seamark:beacon_lateral:colour": "green",
          "seamark:beacon_lateral:system": "iala-a",
          "seamark:information": "Spur marked by Fl.G. 10s.",
          "seamark:light:character": "Fl",
          "seamark:light:colour": "green",
          "seamark:light:period": "10",
          "seamark:light:reference": "D 7357",
          "seamark:name": "Jumerah",
          "seamark:type": "beacon_lateral",
          "source": "US NGA Pub. 112. 2009-11-12."
        }
      },
      {
        "type": "node",
        "id": 1293793687,
        "lat": 25.4431902,
        "lon": 55.459068,
        "tags": {
          "seamark:light:character": "Fl",
          "seamark:light:colour": "red",
          "seamark:light:height": "4",
          "seamark:light:period": "5",
          "seamark:light:range": "3",
          "seamark:light:reference": "D 7353",
          "seamark:type": "light_minor",
          "source": "US NGA Pub. 112. 2009-11-12."
        }
      },
      {
        "type": "node",
        "id": 1293793689,
        "lat": 25.3911925,
        "lon": 55.4120799,
        "tags": {
          "seamark:light:character": "Fl",
          "seamark:light:colour": "green",
          "seamark:light:height": "5",
          "seamark:light:period": "5",
          "seamark:light:reference": "D 7353.5",
          "seamark:light:sequence": "1.5+(3.5)",
          "seamark:name": "Al Hayrah",
          "seamark:type": "light_minor",
          "source": "US NGA Pub. 112. 2009-11-12."
        }
      },
      {
        "type": "node",
        "id": 1293793690,
        "lat": 25.3902009,
        "lon": 55.4123429,
        "tags": {
          "seamark:light:character": "Fl",
          "seamark:light:colour": "red",
          "seamark:light:height": "5",
          "seamark:light:period": "5",
          "seamark:light:reference": "D 7353.6",
          "seamark:light:sequence": "1.5+(3.5)",
          "seamark:type": "light_minor",
          "source": "US NGA Pub. 112. 2009-11-12."
        }
      },
      {
        "type": "node",
        "id": 1293793691,
        "lat": 25.3083167,
        "lon": 55.1666667,
        "tags": {
          "seamark:buoy_safe_water:colour": "red;white",
          "seamark:buoy_safe_water:colour_pattern": "vertical",
          "seamark:buoy_safe_water:shape": "pillar",
          "seamark:light:character": "LFl",
          "seamark:light:colour": "white",
          "seamark:light:period": "10",
          "seamark:radar_transponder:category": "racon",
          "seamark:radar_transponder:group": "T",
          "seamark:topmark:shape": "sphere",
          "seamark:type": "buoy_safe_water",
          "source": "US NGA Pub. 112. 2009-11-12."
        }
      },
      {
        "type": "node",
        "id": 1293793692,
        "lat": 25.2742742,
        "lon": 55.2673162,
        "tags": {
          "seamark:light:category": "lower",
          "seamark:light:character": "Q",
          "seamark:light:colour": "white",
          "seamark:light:height": "5",
          "seamark:light:range": "5",
          "seamark:light:reference": "D 7355.6",
          "seamark:name": "Mina Rashid",
          "seamark:type": "light_minor",
          "source": "US NGA Pub. 112. 2009-11-12."
        }
      },
      {
        "type": "node",
        "id": 1293793695,
        "lat": 25.2795551,
        "lon": 55.2693149,
        "tags": {
          "seamark:information": "4 F.Y. 8m 3M mark E. breakwater, F.R. 0.85 mile SSE. moved as required.",
          "seamark:light:character": "VQ",
          "seamark:light:colour": "red",
          "seamark:light:height": "8",
          "seamark:light:range": "3",
          "seamark:light:reference": "D 7355.8",
          "seamark:type": "light_minor",
          "source": "US NGA Pub. 112. 2009-11-12."
        }
      },
      {
        "type": "node",
        "id": 1293793697,
        "lat": 25.2631167,
        "lon": 55.270817,
        "tags": {
          "seamark:light:character": "Fl",
          "seamark:light:colour": "white",
          "seamark:light:height": "3",
          "seamark:light:period": "3",
          "seamark:light:range": "1",
          "seamark:light:reference": "D 7355.94",
          "seamark:type": "light_minor",
          "source": "US NGA Pub. 112. 2009-11-12."
        }
      },
      {
        "type": "node",
        "id": 1293793698,
        "lat": 25.2478462,
        "lon": 55.260384,
        "tags": {
          "seamark:information": "F.R. 5m 3M dolphin marks SE end.",
          "seamark:light:character": "F",
          "seamark:light:colour": "red",
          "seamark:light:height": "5",
          "seamark:light:range": "3",
          "seamark:light:reference": "D 7356.3",
          "seamark:type": "light_minor",
          "source": "US NGA Pub. 112. 2009-11-12."
        }
      },
      {
        "type": "node",
        "id": 1293793699,
        "lat": 25.2551842,
        "lon": 55.2688528,
        "tags": {
          "seamark:light:character": "F",
          "seamark:light:colour": "red",
          "seamark:light:height": "6",
          "seamark:light:range": "3",
          "seamark:light:reference": "D 7356.5",
          "seamark:type": "light_minor",
          "source": "US NGA Pub. 112. 2009-11-12."
        }
      },
      {
        "type": "node",
        "id": 1293793700,
        "lat": 25.2811337,
        "lon": 55.2917,
        "tags": {
          "seamark:light:character": "Fl",
          "seamark:light:colour": "white",
          "seamark:light:height": "5",
          "seamark:light:period": "3",
          "seamark:light:range": "10",
          "seamark:light:reference": "D 7355.2",
          "seamark:name": "Khaver Dubayy",
          "seamark:type": "light_minor",
          "source": "US NGA Pub. 112. 2009-11-12."
        }
      },
      {
        "type": "node",
        "id": 1293793702,
        "lat": 25.2758813,
        "lon": 55.2950503,
        "tags": {
          "seamark:light:character": "Fl",
          "seamark:light:colour": "red",
          "seamark:light:height": "3",
          "seamark:light:period": "5",
          "seamark:light:range": "3",
          "seamark:light:reference": "D 7355.32",
          "seamark:type": "light_minor",
          "source": "US NGA Pub. 112. 2009-11-12."
        }
      },
      {
        "type": "node",
        "id": 1293793703,
        "lat": 25.26465,
        "lon": 55.2940333,
        "tags": {
          "seamark:information": "Occasional.",
          "seamark:light:1:category": "vertical",
          "seamark:light:1:character": "F",
          "seamark:light:1:colour": "white",
          "seamark:light:2:category": "vertical",
          "seamark:light:2:character": "F",
          "seamark:light:2:colour": "red",
          "seamark:light:reference": "D 7355.4",
          "seamark:type": "light_minor",
          "source": "US NGA Pub. 112. 2009-11-12."
        }
      },
      {
        "type": "node",
        "id": 1293793706,
        "lat": 25.3004431,
        "lon": 55.3295629,
        "tags": {
          "seamark:light:character": "Fl",
          "seamark:light:colour": "white",
          "seamark:light:height": "3",
          "seamark:light:period": "5",
          "seamark:light:range": "2",
          "seamark:light:reference": "D 7354.9",
          "seamark:name": "Al Hamiryah",
          "seamark:type": "light_minor",
          "source": "US NGA Pub. 112. 2009-11-12."
        }
      },
      {
        "type": "node",
        "id": 1293793707,
        "lat": 25.2994496,
        "lon": 55.3305431,
        "tags": {
          "seamark:light:character": "Fl",
          "seamark:light:colour": "red",
          "seamark:light:height": "3",
          "seamark:light:period": "3",
          "seamark:light:range": "1",
          "seamark:light:reference": "D 7354.92",
          "seamark:type": "light_minor",
          "source": "US NGA Pub. 112. 2009-11-12."
        }
      },
      {
        "type": "node",
        "id": 1293793714,
        "lat": 25.9818279,
        "lon": 56.0466085,
        "tags": {
          "seamark:light:character": "Fl",
          "seamark:light:colour": "white",
          "seamark:light:group": "2",
          "seamark:light:period": "10",
          "seamark:light:range": "9",
          "seamark:light:reference": "D 7345",
          "seamark:name": "Mina Saqr Harbor",
          "seamark:type": "light_minor",
          "source": "US NGA Pub. 112. 2009-11-12."
        }
      },
      {
        "type": "node",
        "id": 1293793715,
        "lat": 25.9730642,
        "lon": 56.0490292,
        "tags": {
          "seamark:information": "G. 171°-173°30´, W.-177°30´, R.-180°.",
          "seamark:light:1:character": "Oc",
          "seamark:light:1:colour": "green",
          "seamark:light:1:height": "21",
          "seamark:light:1:period": "3",
          "seamark:light:1:range": "11",
          "seamark:light:1:sector_end": "173.5",
          "seamark:light:1:sector_start": "171",
          "seamark:light:2:character": "Oc",
          "seamark:light:2:colour": "white",
          "seamark:light:2:height": "21",
          "seamark:light:2:period": "3",
          "seamark:light:2:range": "12",
          "seamark:light:2:sector_end": "177.5",
          "seamark:light:2:sector_start": "173.5",
          "seamark:light:3:character": "Oc",
          "seamark:light:3:colour": "red",
          "seamark:light:3:height": "21",
          "seamark:light:3:period": "3",
          "seamark:light:3:range": "10",
          "seamark:light:3:sector_end": "180",
          "seamark:light:3:sector_start": "177.5",
          "seamark:light:reference": "D 7345.5",
          "seamark:name": "Entrance.",
          "seamark:type": "light_major",
          "source": "US NGA Pub. 112. 2009-11-12."
        }
      },
      {
        "type": "node",
        "id": 1293793716,
        "lat": 25.9800431,
        "lon": 56.0497149,
        "tags": {
          "seamark:light:character": "Fl",
          "seamark:light:colour": "red",
          "seamark:light:group": "2",
          "seamark:light:period": "10",
          "seamark:light:range": "8",
          "seamark:light:reference": "D 7345.2",
          "seamark:type": "light_minor",
          "source": "US NGA Pub. 112. 2009-11-12."
        }
      },
      {
        "type": "node",
        "id": 1293793717,
        "lat": 25.97947,
        "lon": 56.0471847,
        "tags": {
          "seamark:light:1:character": "Fl",
          "seamark:light:1:colour": "green",
          "seamark:light:1:period": "3",
          "seamark:light:1:sector_end": "17",
          "seamark:light:1:sector_start": "165",
          "seamark:light:reference": "D 7345.05",
          "seamark:type": "light_minor",
          "source": "US NGA Pub. 112. 2009-11-12."
        }
      },
      {
        "type": "node",
        "id": 1293793718,
        "lat": 26.2442167,
        "lon": 56.0552667,
        "tags": {
          "man_made": "offshore_platform",
          "seamark:fog_signal:category": "horn",
          "seamark:information": "Horn: Mo.(U) 30s",
          "seamark:light:character": "Mo",
          "seamark:light:colour": "white",
          "seamark:light:group": "U",
          "seamark:light:period": "15",
          "seamark:light:reference": "D 9192",
          "seamark:name": "Bukha \"A\" Platform.",
          "seamark:platform:category": "production",
          "seamark:radar_transponder:category": "racon",
          "seamark:radar_transponder:group": "B",
          "seamark:type": "platform",
          "source": "US NGA Pub. 112. 2009-11-12."
        }
      },
      {
        "type": "node",
        "id": 1293793719,
        "lat": 26.2553745,
        "lon": 56.2148678,
        "tags": {
          "seamark:information": "Visible 065°-297°.",
          "seamark:light:1:character": "Fl",
          "seamark:light:1:colour": "white",
          "seamark:light:1:height": "19",
          "seamark:light:1:period": "5",
          "seamark:light:1:range": "10",
          "seamark:light:1:sector_end": "297",
          "seamark:light:1:sector_start": "65",
          "seamark:light:reference": "D 7336",
          "seamark:name": "Ra's Shaykh Mas‘ud.",
          "seamark:type": "light_major",
          "source": "US NGA Pub. 112. 2009-11-12."
        }
      },
      {
        "type": "node",
        "id": 1293793720,
        "lat": 26.2108202,
        "lon": 56.2503259,
        "tags": {
          "seamark:information": "F.W. 2M marks groin close S.",
          "seamark:light:character": "Fl",
          "seamark:light:colour": "green",
          "seamark:light:height": "8",
          "seamark:light:period": "5",
          "seamark:light:range": "5",
          "seamark:light:reference": "D 7336.2",
          "seamark:name": "Khasab",
          "seamark:type": "light_minor",
          "source": "US NGA Pub. 112. 2009-11-12."
        }
      },
      {
        "type": "node",
        "id": 1315862113,
        "lat": 25.6196745,
        "lon": 56.2748596,
        "tags": {
          "harbour": "yes"
        }
      },
      {
        "type": "node",
        "id": 1315862381,
        "lat": 25.6500503,
        "lon": 56.2704116,
        "tags": {
          "amenity": "ferry_terminal",
          "ferry": "yes",
          "public_transport": "station"
        }
      },
      {
        "type": "node",
        "id": 1580049619,
        "lat": 26.3724317,
        "lon": 56.3540719,
        "tags": {
          "man_made": "tower",
          "seamark:landmark:category": "tower",
          "seamark:light:category": "aero",
          "seamark:light:colour": "red",
          "seamark:type": "landmark",
          "source": "Bing"
        }
      },
      {
        "type": "node",
        "id": 1589742199,
        "lat": 26.9478952,
        "lon": 56.2840349,
        "tags": {
          "harbour": "yes",
          "leisure": "marina",
          "name": "Bahman Port",
          "name:fa": "اسکله بهمن",
          "operator": "Qeshm Free Zone",
          "power_supply": "yes",
          "sanitary_dump_station": "yes",
          "seamark:harbour:category": "marina",
          "seamark:type": "harbour"
        }
      },
      {
        "type": "node",
        "id": 1589742393,
        "lat": 26.9692749,
        "lon": 56.2649771,
        "tags": {
          "harbour": "yes",
          "leisure": "marina",
          "name": "اسکله صیادی",
          "power_supply": "yes",
          "sanitary_dump_station": "no",
          "seamark:harbour:category": "marina",
          "seamark:type": "harbour"
        }
      },
      {
        "type": "node",
        "id": 1619099753,
        "lat": 25.2102772,
        "lon": 55.2444751,
        "tags": {
          "leisure": "marina",
          "name": "ميناء صيد جميرا",
          "name:ar": "ميناء صيد جميرا",
          "name:en": "Jumeirah Fishing Harbour",
          "name:fr": "Port de pêche de Jumeirah",
          "name:ur": "جمیرا ماہی گیری کی بندرگاہ",
          "seamark:harbour:category": "marina",
          "seamark:type": "harbour"
        }
      },
      {
        "type": "node",
        "id": 1812866968,
        "lat": 25.8733428,
        "lon": 55.0110159,
        "tags": {
          "harbour": "yes",
          "leisure": "marina",
          "seamark:harbour:category": "marina",
          "seamark:type": "harbour",
          "source": "Bing"
        }
      },
      {
        "type": "node",
        "id": 1813055301,
        "lat": 26.2483795,
        "lon": 55.297208,
        "tags": {
          "harbour": "yes",
          "source": "Bing"
        }
      },
      {
        "type": "node",
        "id": 1966686113,
        "lat": 27.0940745,
        "lon": 56.4445942,
        "tags": {
          "leisure": "marina",
          "name": "اسکله بندر هرمز",
          "name:ar": "ميناء هرمز",
          "seamark:harbour:category": "marina",
          "seamark:type": "harbour"
        }
      },
      {
        "type": "node",
        "id": 1971953988,
        "lat": 25.2250702,
        "lon": 55.1692565,
        "tags": {
          "amenity": "ferry_terminal",
          "cargo": "passengers",
          "ferry": "yes",
          "name": "آيلاند بيتش كلوب",
          "name:ar": "آيلاند بيتش كلوب",
          "name:en": "The Island Beach Club",
          "public_transport": "station"
        }
      },
      {
        "type": "node",
        "id": 2038460483,
        "lat": 26.2406744,
        "lon": 55.1556998,
        "tags": {
          "harbour": "yes",
          "seamark:type": "harbour",
          "source": "Bing"
        }
      },
      {
        "type": "node",
        "id": 2062356008,
        "lat": 25.0756918,
        "lon": 55.1378758,
        "tags": {
          "amenity": "ferry_terminal",
          "cargo": "passengers",
          "ferry": "yes",
          "name": "مرسى دبي",
          "name:ar": "مرسى دبي",
          "name:en": "Dubai Marina",
          "name:fa": "دبی مارینا",
          "name:ur": "دبئی لنگر گاہ",
          "public_transport": "station",
          "wheelchair": "yes"
        }
      },
      {
        "type": "node",
        "id": 2079915442,
        "lat": 26.9671894,
        "lon": 56.2725909,
        "tags": {
          "amenity": "ferry_terminal",
          "ferry": "yes",
          "public_transport": "station"
        }
      },
      {
        "type": "node",
        "id": 2079915549,
        "lat": 27.0943767,
        "lon": 56.4438989,
        "tags": {
          "amenity": "ferry_terminal",
          "ferry": "yes",
          "public_transport": "station"
        }
      },
      {
        "type": "node",
        "id": 2086620822,
        "lat": 25.9795057,
        "lon": 56.0527205,
        "tags": {
          "seamark:landmark:category": "tower",
          "seamark:type": "landmark"
        }
      },
      {
        "type": "node",
        "id": 2086621389,
        "lat": 26.3686207,
        "lon": 56.3642692,
        "tags": {
          "seamark:landmark:category": "tower",
          "seamark:type": "landmark"
        }
      },
      {
        "type": "node",
        "id": 2086621404,
        "lat": 26.3691965,
        "lon": 56.362322,
        "tags": {
          "seamark:landmark:category": "minaret",
          "seamark:type": "landmark"
        }
      },
      {
        "type": "node",
        "id": 2109558996,
        "lat": 25.301846,
        "lon": 55.3339001,
        "tags": {
          "harbour": "yes",
          "name": "ميناء الحمرية",
          "name:ar": "ميناء الحمرية",
          "name:en": "Al Hamriya Port"
        }
      },
      {
        "type": "node",
        "id": 2142270539,
        "lat": 25.6372463,
        "lon": 55.7147917,
        "tags": {
          "amenity": "ferry_terminal",
          "ferry": "yes",
          "public_transport": "station"
        }
      },
      {
        "type": "node",
        "id": 2142270548,
        "lat": 25.6350109,
        "lon": 55.7089961,
        "tags": {
          "amenity": "ferry_terminal",
          "ferry": "yes",
          "public_transport": "station"
        }
      },
      {
        "type": "node",
        "id": 2142282449,
        "lat": 25.6519918,
        "lon": 55.7089765,
        "tags": {
          "amenity": "ferry_terminal"
        }
      },
      {
        "type": "node",
        "id": 2291403655,
        "lat": 25.3518331,
        "lon": 54.4845351,
        "tags": {
          "man_made": "pumping_rig",
          "seamark:platform:category": "production",
          "seamark:type": "platform",
          "source": "Aramco"
        }
      },
      {
        "type": "node",
        "id": 2291403680,
        "lat": 25.3624401,
        "lon": 54.4809802,
        "tags": {
          "man_made": "pumping_rig",
          "seamark:platform:category": "production",
          "seamark:type": "platform",
          "source": "Aramco"
        }
      },
      {
        "type": "node",
        "id": 2291405992,
        "lat": 25.5716608,
        "lon": 54.4137056,
        "tags": {
          "man_made": "pumping_rig",
          "seamark:platform:category": "production",
          "seamark:type": "platform",
          "source": "Aramco"
        }
      },
      {
        "type": "node",
        "id": 2291406012,
        "lat": 25.5771167,
        "lon": 55.4027833,
        "tags": {
          "seamark:buoy_installation:category": "sbm",
          "seamark:light:character": "Mo",
          "seamark:light:colour": "white",
          "seamark:light:group": "U",
          "seamark:light:period": "15",
          "seamark:light:range": "6",
          "seamark:light:reference": "D 7351",
          "seamark:name": "Amoco Sharjah Oil Terminal",
          "seamark:radar_transponder:category": "racon",
          "seamark:radar_transponder:group": "Z",
          "seamark:radar_transponder:period": "48",
          "seamark:type": "buoy_installation",
          "source": "US NGA Pub. 112. 2009-11-12."
        }
      },
      {
        "type": "node",
        "id": 2291406016,
        "lat": 25.5782555,
        "lon": 54.4415411,
        "tags": {
          "man_made": "pumping_rig",
          "seamark:platform:category": "production",
          "seamark:type": "platform",
          "source": "Aramco"
        }
      },
      {
        "type": "node",
        "id": 2291406173,
        "lat": 25.598128,
        "lon": 54.4194739,
        "tags": {
          "man_made": "pumping_rig",
          "seamark:platform:category": "production",
          "seamark:type": "platform",
          "source": "Aramco"
        }
      },
      {
        "type": "node",
        "id": 2291406175,
        "lat": 25.5982188,
        "lon": 54.4303398,
        "tags": {
          "man_made": "pumping_rig",
          "seamark:platform:category": "production",
          "seamark:type": "platform",
          "source": "Aramco"
        }
      },
      {
        "type": "node",
        "id": 2291406177,
        "lat": 25.5982188,
        "lon": 54.4369801,
        "tags": {
          "man_made": "pumping_rig",
          "seamark:platform:category": "production",
          "seamark:type": "platform",
          "source": "Aramco"
        }
      },
      {
        "type": "node",
        "id": 2291406191,
        "lat": 25.5989144,
        "lon": 54.4254435,
        "tags": {
          "man_made": "pumping_rig",
          "seamark:platform:category": "production",
          "seamark:type": "platform",
          "source": "Aramco"
        }
      },
      {
        "type": "node",
        "id": 2291406215,
        "lat": 25.6000939,
        "lon": 54.4275898,
        "tags": {
          "man_made": "pumping_rig",
          "seamark:platform:category": "production",
          "seamark:type": "platform",
          "source": "Aramco"
        }
      },
      {
        "type": "node",
        "id": 2291406243,
        "lat": 25.6013944,
        "lon": 54.4297026,
        "tags": {
          "man_made": "pumping_rig",
          "seamark:platform:category": "production",
          "seamark:type": "platform",
          "source": "Aramco"
        }
      },
      {
        "type": "node",
        "id": 2291406277,
        "lat": 25.6021505,
        "lon": 54.4225593,
        "tags": {
          "man_made": "pumping_rig",
          "seamark:platform:category": "production",
          "seamark:type": "platform",
          "source": "Aramco"
        }
      },
      {
        "type": "node",
        "id": 2291406283,
        "lat": 25.6035418,
        "lon": 54.4242697,
        "tags": {
          "man_made": "pumping_rig",
          "seamark:platform:category": "production",
          "seamark:type": "platform",
          "source": "Aramco"
        }
      },
      {
        "type": "node",
        "id": 2291406290,
        "lat": 25.6047515,
        "lon": 54.4605899,
        "tags": {
          "man_made": "pumping_rig",
          "seamark:platform:category": "production",
          "seamark:type": "platform",
          "source": "Aramco"
        }
      },
      {
        "type": "node",
        "id": 2291406311,
        "lat": 25.609681,
        "lon": 54.470785,
        "tags": {
          "man_made": "pumping_rig",
          "seamark:platform:category": "production",
          "seamark:type": "platform",
          "source": "Aramco"
        }
      },
      {
        "type": "node",
        "id": 2291406327,
        "lat": 25.6152454,
        "lon": 54.4543185,
        "tags": {
          "man_made": "pumping_rig",
          "seamark:platform:category": "production",
          "seamark:type": "platform",
          "source": "Aramco"
        }
      },
      {
        "type": "node",
        "id": 2291406343,
        "lat": 25.6202955,
        "lon": 54.4320167,
        "tags": {
          "man_made": "pumping_rig",
          "seamark:platform:category": "production",
          "seamark:type": "platform",
          "source": "Aramco"
        }
      },
      {
        "type": "node",
        "id": 2291406347,
        "lat": 25.6230775,
        "lon": 54.4122636,
        "tags": {
          "man_made": "pumping_rig",
          "seamark:platform:category": "production",
          "seamark:type": "platform",
          "source": "Aramco"
        }
      },
      {
        "type": "node",
        "id": 2291406356,
        "lat": 25.6258896,
        "lon": 54.4384222,
        "tags": {
          "man_made": "pumping_rig",
          "seamark:platform:category": "production",
          "seamark:type": "platform",
          "source": "Aramco"
        }
      },
      {
        "type": "node",
        "id": 2291406358,
        "lat": 25.6262223,
        "lon": 54.4085075,
        "tags": {
          "man_made": "pumping_rig",
          "seamark:platform:category": "production",
          "seamark:type": "platform",
          "source": "Aramco"
        }
      },
      {
        "type": "node",
        "id": 2291406386,
        "lat": 25.6377121,
        "lon": 54.4667606,
        "tags": {
          "man_made": "pumping_rig",
          "seamark:platform:category": "production",
          "seamark:type": "platform",
          "source": "Aramco"
        }
      },
      {
        "type": "node",
        "id": 2291406409,
        "lat": 25.6468124,
        "lon": 54.4145441,
        "tags": {
          "man_made": "pumping_rig",
          "seamark:platform:category": "production",
          "seamark:type": "platform",
          "source": "Aramco"
        }
      },
      {
        "type": "node",
        "id": 2291406414,
        "lat": 25.6504403,
        "lon": 54.4453642,
        "tags": {
          "man_made": "pumping_rig",
          "seamark:platform:category": "production",
          "seamark:type": "platform",
          "source": "Aramco"
        }
      },
      {
        "type": "node",
        "id": 2291406415,
        "lat": 25.6504403,
        "lon": 54.4691082,
        "tags": {
          "man_made": "pumping_rig",
          "seamark:platform:category": "production",
          "seamark:type": "platform",
          "source": "Aramco"
        }
      },
      {
        "type": "node",
        "id": 2291406423,
        "lat": 25.654189,
        "lon": 54.4256447,
        "tags": {
          "man_made": "pumping_rig",
          "seamark:platform:category": "production",
          "seamark:type": "platform",
          "source": "Aramco"
        }
      },
      {
        "type": "node",
        "id": 2291406430,
        "lat": 25.6585421,
        "lon": 54.4395624,
        "tags": {
          "man_made": "pumping_rig",
          "seamark:platform:category": "production",
          "seamark:type": "platform",
          "source": "Aramco"
        }
      },
      {
        "type": "node",
        "id": 2291406431,
        "lat": 25.6587537,
        "lon": 54.4589801,
        "tags": {
          "man_made": "pumping_rig",
          "seamark:platform:category": "production",
          "seamark:type": "platform",
          "source": "Aramco"
        }
      },
      {
        "type": "node",
        "id": 2291406449,
        "lat": 25.6696056,
        "lon": 54.4393276,
        "tags": {
          "man_made": "pumping_rig",
          "seamark:platform:category": "production",
          "seamark:type": "platform",
          "source": "Aramco"
        }
      },
      {
        "type": "node",
        "id": 2291406473,
        "lat": 25.68227,
        "lon": 55.3675551,
        "tags": {
          "man_made": "pumping_rig",
          "seamark:platform:category": "production",
          "seamark:type": "platform",
          "source": "Aramco"
        }
      },
      {
        "type": "node",
        "id": 2291406516,
        "lat": 25.7251798,
        "lon": 54.6026847,
        "tags": {
          "man_made": "pumping_rig",
          "seamark:platform:category": "production",
          "seamark:type": "platform",
          "source": "Aramco"
        }
      },
      {
        "type": "node",
        "id": 2291406542,
        "lat": 25.7476257,
        "lon": 54.6259591,
        "tags": {
          "man_made": "pumping_rig",
          "seamark:platform:category": "production",
          "seamark:type": "platform",
          "source": "Aramco"
        }
      },
      {
        "type": "node",
        "id": 2291406565,
        "lat": 25.7707922,
        "lon": 54.6418219,
        "tags": {
          "man_made": "pumping_rig",
          "seamark:platform:category": "production",
          "seamark:type": "platform",
          "source": "Aramco"
        }
      },
      {
        "type": "node",
        "id": 2291406581,
        "lat": 25.8190815,
        "lon": 55.2246303,
        "tags": {
          "man_made": "offshore_platform",
          "seamark:name": "N2",
          "seamark:platform:category": "production",
          "seamark:type": "platform",
          "source": "Aramco"
        }
      },
      {
        "type": "node",
        "id": 2291406583,
        "lat": 25.8218326,
        "lon": 55.1777087,
        "tags": {
          "man_made": "offshore_platform",
          "seamark:fog_signal:category": "horn",
          "seamark:light:character": "Mo",
          "seamark:light:colour": "white",
          "seamark:light:group": "U",
          "seamark:light:period": "30",
          "seamark:name": "Prod Mubaraka",
          "seamark:platform:category": "production",
          "seamark:type": "platform",
          "source": "Aramco"
        }
      },
      {
        "type": "node",
        "id": 2291406588,
        "lat": 25.8277001,
        "lon": 55.1961577,
        "tags": {
          "seamark:buoy_lateral:category": "starboard",
          "seamark:buoy_lateral:colour": "green",
          "seamark:buoy_lateral:shape": "conical",
          "seamark:buoy_lateral:system": "iala-a",
          "seamark:light:character": "Fl",
          "seamark:light:colour": "green",
          "seamark:light:period": "3",
          "seamark:topmark:colour": "green",
          "seamark:topmark:shape": "cone, point up",
          "seamark:type": "buoy_lateral"
        }
      },
      {
        "type": "node",
        "id": 2291406603,
        "lat": 25.8452221,
        "lon": 55.1965601,
        "tags": {
          "man_made": "offshore_platform",
          "seamark:light:character": "Mo",
          "seamark:light:colour": "white",
          "seamark:light:group": "U",
          "seamark:light:period": "30",
          "seamark:platform:category": "production",
          "seamark:type": "platform",
          "source": "Aramco"
        }
      },
      {
        "type": "node",
        "id": 2291406607,
        "lat": 25.8459088,
        "lon": 55.1952438,
        "tags": {
          "man_made": "offshore_platform",
          "seamark:platform:category": "production",
          "seamark:type": "platform",
          "source": "Aramco"
        }
      },
      {
        "type": "node",
        "id": 2291406612,
        "lat": 25.8467167,
        "lon": 55.1772333,
        "tags": {
          "man_made": "offshore_platform",
          "seamark:name": "L1",
          "seamark:platform:category": "production",
          "seamark:type": "platform",
          "source": "Aramco"
        }
      },
      {
        "type": "node",
        "id": 2291406623,
        "lat": 25.8495909,
        "lon": 55.1997377,
        "tags": {
          "man_made": "offshore_platform",
          "seamark:platform:category": "production",
          "seamark:type": "platform",
          "source": "Aramco"
        }
      },
      {
        "type": "node",
        "id": 2291406630,
        "lat": 25.8509491,
        "lon": 55.1969206,
        "tags": {
          "man_made": "offshore_platform",
          "seamark:platform:category": "production",
          "seamark:type": "platform",
          "source": "Aramco"
        }
      },
      {
        "type": "node",
        "id": 2291406637,
        "lat": 25.8536049,
        "lon": 55.2089267,
        "tags": {
          "man_made": "offshore_platform",
          "seamark:platform:category": "production",
          "seamark:type": "platform",
          "source": "Aramco"
        }
      },
      {
        "type": "node",
        "id": 2291406645,
        "lat": 25.8565399,
        "lon": 55.2253345,
        "tags": {
          "man_made": "offshore_platform",
          "seamark:name": "M1",
          "seamark:platform:category": "production",
          "seamark:type": "platform",
          "source": "Aramco"
        }
      },
      {
        "type": "node",
        "id": 2291406658,
        "lat": 25.8568417,
        "lon": 55.2034686,
        "tags": {
          "man_made": "offshore_platform",
          "seamark:platform:category": "production",
          "seamark:type": "platform",
          "source": "Aramco"
        }
      },
      {
        "type": "node",
        "id": 2291406685,
        "lat": 25.8622437,
        "lon": 55.2142674,
        "tags": {
          "man_made": "offshore_platform",
          "seamark:name": "B1",
          "seamark:platform:category": "production",
          "seamark:type": "platform",
          "source": "Aramco"
        }
      },
      {
        "type": "node",
        "id": 2291406694,
        "lat": 25.8636016,
        "lon": 55.2049107,
        "tags": {
          "man_made": "offshore_platform",
          "seamark:name": "J1",
          "seamark:platform:category": "production",
          "seamark:type": "platform",
          "source": "Aramco"
        }
      },
      {
        "type": "node",
        "id": 2291406720,
        "lat": 25.8700217,
        "lon": 55.1899785,
        "tags": {
          "man_made": "offshore_platform",
          "seamark:name": "K1",
          "seamark:platform:category": "production",
          "seamark:type": "platform",
          "source": "Aramco"
        }
      },
      {
        "type": "node",
        "id": 2291407023,
        "lat": 25.9754279,
        "lon": 55.9374371,
        "tags": {
          "seamark:buoy_special_purpose:category": "mooring",
          "seamark:buoy_special_purpose:shape": "super-buoy",
          "seamark:name": "Hulaylah Oil Terminal",
          "seamark:type": "buoy_special_purpose"
        }
      },
      {
        "type": "node",
        "id": 2291407117,
        "lat": 26.0766353,
        "lon": 55.4515309,
        "tags": {
          "man_made": "pumping_rig",
          "seamark:light:character": "Mo",
          "seamark:light:colour": "white",
          "seamark:light:group": "U",
          "seamark:light:period": "15",
          "seamark:name": "Prod Vitol-B",
          "seamark:platform:category": "production",
          "seamark:type": "platform",
          "source": "Aramco"
        }
      },
      {
        "type": "node",
        "id": 2291407155,
        "lat": 26.1655398,
        "lon": 55.7542473,
        "tags": {
          "man_made": "pumping_rig",
          "seamark:platform:category": "production",
          "seamark:type": "platform",
          "source": "Aramco"
        }
      },
      {
        "type": "node",
        "id": 2291407163,
        "lat": 26.1712318,
        "lon": 55.6973014,
        "tags": {
          "man_made": "pumping_rig",
          "seamark:platform:category": "production",
          "seamark:type": "platform",
          "source": "Aramco"
        }
      },
      {
        "type": "node",
        "id": 2291407168,
        "lat": 26.175848,
        "lon": 55.7615437,
        "tags": {
          "man_made": "pumping_rig",
          "seamark:platform:category": "production",
          "seamark:type": "platform",
          "source": "Aramco"
        }
      },
      {
        "type": "node",
        "id": 2291407180,
        "lat": 26.1804227,
        "lon": 55.7054704,
        "tags": {
          "man_made": "pumping_rig",
          "seamark:platform:category": "production",
          "seamark:type": "platform",
          "source": "Aramco"
        }
      },
      {
        "type": "node",
        "id": 2291407237,
        "lat": 26.1936843,
        "lon": 55.708674,
        "tags": {
          "man_made": "pumping_rig",
          "seamark:fog_signal:category": "horn",
          "seamark:fog_signal:group": "U",
          "seamark:fog_signal:period": "30",
          "seamark:light:character": "Mo",
          "seamark:light:colour": "white",
          "seamark:light:group": "U",
          "seamark:light:period": "15",
          "seamark:name": "Prod 1X",
          "seamark:platform:category": "production",
          "seamark:type": "platform",
          "source": "Aramco"
        }
      },
      {
        "type": "node",
        "id": 2291407248,
        "lat": 26.1943864,
        "lon": 55.7322327,
        "tags": {
          "man_made": "pumping_rig",
          "seamark:platform:category": "production",
          "seamark:type": "platform",
          "source": "Aramco"
        }
      },
      {
        "type": "node",
        "id": 2291407253,
        "lat": 26.197516,
        "lon": 55.7108363,
        "tags": {
          "man_made": "pumping_rig",
          "seamark:platform:category": "production",
          "seamark:type": "platform",
          "source": "Aramco"
        }
      },
      {
        "type": "node",
        "id": 2291407473,
        "lat": 26.381276,
        "lon": 55.979957,
        "tags": {
          "man_made": "offshore_platform",
          "seamark:fog_signal:category": "horn",
          "seamark:fog_signal:group": "U",
          "seamark:fog_signal:period": "30",
          "seamark:light:character": "Mo",
          "seamark:light:colour": "white",
          "seamark:light:group": "U",
          "seamark:light:period": "15",
          "seamark:light:range": "10",
          "seamark:light:reference": "D 9194",
          "seamark:name": "Prod West Bukha",
          "seamark:platform:category": "production",
          "seamark:radar_transponder:category": "racon",
          "seamark:radar_transponder:group": "W",
          "seamark:radar_transponder:range": "18",
          "seamark:type": "platform",
          "source": "Aramco"
        }
      },
      {
        "type": "node",
        "id": 2292852034,
        "lat": 25.8517667,
        "lon": 55.01895,
        "tags": {
          "seamark:buoy_cardinal:category": "south",
          "seamark:buoy_cardinal:colour": "yellow;black",
          "seamark:buoy_cardinal:colour_pattern": "horizontal",
          "seamark:buoy_cardinal:shape": "pillar",
          "seamark:light:character": "Q+LFl",
          "seamark:light:colour": "white",
          "seamark:light:group": "6",
          "seamark:light:period": "15",
          "seamark:topmark:colour": "black",
          "seamark:topmark:shape": "2 cones down",
          "seamark:type": "buoy_cardinal"
        }
      },
      {
        "type": "node",
        "id": 2292852052,
        "lat": 25.8668333,
        "lon": 55.0083667,
        "tags": {
          "seamark:buoy_cardinal:category": "west",
          "seamark:buoy_cardinal:colour": "yellow;black;yellow",
          "seamark:buoy_cardinal:colour_pattern": "horizontal",
          "seamark:buoy_cardinal:shape": "pillar",
          "seamark:light:character": "Q",
          "seamark:light:colour": "white",
          "seamark:light:group": "9",
          "seamark:light:period": "15",
          "seamark:topmark:colour": "black",
          "seamark:topmark:shape": "2 cones point together",
          "seamark:type": "buoy_cardinal"
        }
      },
      {
        "type": "node",
        "id": 2292852066,
        "lat": 26.0689393,
        "lon": 55.5669394,
        "tags": {
          "seamark:buoy_cardinal:category": "north",
          "seamark:buoy_cardinal:colour": "black;yellow",
          "seamark:buoy_cardinal:colour_pattern": "horizontal",
          "seamark:buoy_cardinal:shape": "pillar",
          "seamark:light:character": "Q",
          "seamark:light:colour": "white",
          "seamark:topmark:colour": "black",
          "seamark:topmark:shape": "2 cones up",
          "seamark:type": "buoy_cardinal"
        }
      },
      {
        "type": "node",
        "id": 2292852077,
        "lat": 26.1599875,
        "lon": 55.3013115,
        "tags": {
          "seamark:buoy_cardinal:category": "south",
          "seamark:buoy_cardinal:colour": "yellow;black",
          "seamark:buoy_cardinal:colour_pattern": "horizontal",
          "seamark:buoy_cardinal:shape": "pillar",
          "seamark:light:character": "Q+LFl",
          "seamark:light:colour": "white",
          "seamark:light:group": "6",
          "seamark:light:period": "10",
          "seamark:topmark:colour": "black",
          "seamark:topmark:shape": "2 cones down",
          "seamark:type": "buoy_cardinal"
        }
      },
      {
        "type": "node",
        "id": 2292852093,
        "lat": 26.1789259,
        "lon": 55.3448673,
        "tags": {
          "seamark:buoy_cardinal:category": "south",
          "seamark:buoy_cardinal:colour": "yellow;black",
          "seamark:buoy_cardinal:colour_pattern": "horizontal",
          "seamark:buoy_cardinal:shape": "pillar",
          "seamark:light:character": "Q+LFl",
          "seamark:light:colour": "white",
          "seamark:light:group": "6",
          "seamark:light:period": "15",
          "seamark:topmark:colour": "black",
          "seamark:topmark:shape": "2 cones down",
          "seamark:type": "buoy_cardinal"
        }
      },
      {
        "type": "node",
        "id": 2292852106,
        "lat": 26.3439997,
        "lon": 55.2087494,
        "tags": {
          "seamark:buoy_cardinal:category": "south",
          "seamark:buoy_cardinal:colour": "yellow;black",
          "seamark:buoy_cardinal:colour_pattern": "horizontal",
          "seamark:buoy_cardinal:shape": "pillar",
          "seamark:light:character": "Q+LFl",
          "seamark:light:colour": "white",
          "seamark:light:group": "6",
          "seamark:light:period": "15",
          "seamark:topmark:colour": "black",
          "seamark:topmark:shape": "2 cones down",
          "seamark:type": "buoy_cardinal"
        }
      },
      {
        "type": "node",
        "id": 2295842739,
        "lat": 26.3941833,
        "lon": 56.41265,
        "tags": {
          "seamark:beacon_isolated_danger:colour": "black;red;black",
          "seamark:beacon_isolated_danger:colour_pattern": "horizontal",
          "seamark:light:character": "Fl",
          "seamark:light:colour": "white",
          "seamark:light:group": "2",
          "seamark:light:height": "3",
          "seamark:light:period": "5",
          "seamark:light:range": "5",
          "seamark:light:reference": "D 7335.5",
          "seamark:name": "Keshal rock",
          "seamark:topmark:colour": "black",
          "seamark:topmark:shape": "2 spheres",
          "seamark:type": "beacon_isolated_danger"
        }
      },
      {
        "type": "node",
        "id": 2296889294,
        "lat": 26.001655,
        "lon": 56.0385223,
        "tags": {
          "seamark:buoy_safe_water:colour": "red;white",
          "seamark:buoy_safe_water:colour_pattern": "vertical",
          "seamark:buoy_safe_water:shape": "spherical",
          "seamark:light:character": "Iso",
          "seamark:light:colour": "white",
          "seamark:light:period": "6",
          "seamark:topmark:colour": "red",
          "seamark:topmark:shape": "sphere",
          "seamark:type": "buoy_safe_water"
        }
      },
      {
        "type": "node",
        "id": 2296889301,
        "lat": 26.1680333,
        "lon": 55.88485,
        "tags": {
          "seamark:buoy_special_purpose:colour": "yellow",
          "seamark:buoy_special_purpose:shape": "spherical",
          "seamark:light:character": "Fl",
          "seamark:light:colour": "yellow",
          "seamark:light:period": "6",
          "seamark:name": "Inchscape",
          "seamark:topmark:colour": "yellow",
          "seamark:topmark:shape": "x-shape",
          "seamark:type": "buoy_special_purpose"
        }
      },
      {
        "type": "node",
        "id": 2296889310,
        "lat": 26.2217133,
        "lon": 56.2536382,
        "tags": {
          "seamark:buoy_safe_water:colour": "red;white",
          "seamark:buoy_safe_water:colour_pattern": "vertical",
          "seamark:buoy_safe_water:shape": "pillar",
          "seamark:light:character": "Mo",
          "seamark:light:colour": "white",
          "seamark:light:group": "A",
          "seamark:light:period": "10",
          "seamark:topmark:colour": "red",
          "seamark:topmark:shape": "sphere",
          "seamark:type": "buoy_safe_water"
        }
      },
      {
        "type": "node",
        "id": 2414441619,
        "lat": 25.8825732,
        "lon": 56.0278302,
        "tags": {
          "leisure": "marina",
          "seamark:harbour:category": "marina",
          "seamark:type": "harbour"
        }
      },
      {
        "type": "node",
        "id": 2600959627,
        "lat": 25.022251,
        "lon": 55.0618279,
        "tags": {
          "amenity": "ferry_terminal",
          "ferry": "yes",
          "name": "ميناء جبل علي للحاويات 2",
          "name:ar": "ميناء جبل علي للحاويات 2",
          "name:cs": "Přístav Džebel Ali",
          "name:en": "Jebel Ali Container Terminal 2",
          "public_transport": "station",
          "wikidata": "Q509588",
          "wikimedia_commons": "Category:Mena Jabal Ali",
          "wikipedia": "en:Port of Jebel Ali"
        }
      },
      {
        "type": "node",
        "id": 2941645658,
        "lat": 25.2646933,
        "lon": 55.2930443,
        "tags": {
          "amenity": "ferry_terminal",
          "ferry": "yes",
          "name": "Bur Dubai Abra Station",
          "name:en": "Abra station south - Bur Dubai",
          "public_transport": "station"
        }
      },
      {
        "type": "node",
        "id": 2941645659,
        "lat": 25.2671395,
        "lon": 55.2979895,
        "tags": {
          "amenity": "ferry_terminal",
          "ferry": "yes",
          "name": "Deira Old Souk",
          "name:en": "Deira Old Souk",
          "public_transport": "station",
          "wheelchair": "limited"
        }
      },
      {
        "type": "node",
        "id": 3285654111,
        "lat": 26.9734679,
        "lon": 55.7474789,
        "tags": {
          "amenity": "ferry_terminal",
          "name": "اسکله پل",
          "name:en": "Eskeleye Bandare Pol",
          "name:fa": "اسکله بندر پل بندرعباس",
          "name:ru": "Паромная переправа"
        }
      },
      {
        "type": "node",
        "id": 3335279393,
        "lat": 24.5104271,
        "lon": 56.6283788,
        "tags": {
          "harbour": "yes",
          "name": "Sohar Port and Freezone",
          "name:en": "Sohar Port and Freezone"
        }
      },
      {
        "type": "node",
        "id": 3339528085,
        "lat": 25.2111216,
        "lon": 55.2439446,
        "tags": {
          "amenity": "ferry_terminal",
          "cargo": "passengers",
          "ferry": "yes",
          "name": "ميناء صيد جميرا وان",
          "name:ar": "ميناء صيد جميرا وان",
          "name:en": "Jumeirah One Fishing Harbour",
          "public_transport": "station",
          "wheelchair": "limited"
        }
      },
      {
        "type": "node",
        "id": 3442418959,
        "lat": 25.7774395,
        "lon": 55.9393011,
        "tags": {
          "amenity": "ferry_terminal",
          "ferry": "yes",
          "public_transport": "station"
        }
      },
      {
        "type": "node",
        "id": 3442418971,
        "lat": 25.7845651,
        "lon": 55.9640191,
        "tags": {
          "amenity": "ferry_terminal",
          "ferry": "yes",
          "public_transport": "station"
        }
      },
      {
        "type": "node",
        "id": 3491713835,
        "lat": 24.7475189,
        "lon": 56.4719013,
        "tags": {
          "amenity": "ferry_terminal"
        }
      },
      {
        "type": "node",
        "id": 3556699356,
        "lat": 25.2654279,
        "lon": 55.2912213,
        "tags": {
          "amenity": "ferry_terminal",
          "ferry": "yes",
          "name": "الغبيبة",
          "name:ar": "الغبيبة",
          "name:en": "Al Ghubaiba",
          "public_transport": "station",
          "wheelchair": "yes"
        }
      },
      {
        "type": "node",
        "id": 3556699360,
        "lat": 25.2647926,
        "lon": 55.2933384,
        "tags": {
          "amenity": "ferry_terminal",
          "ferry": "yes",
          "name": "Dubai Old Souk - water bus terminal",
          "name:en": "Dubai Old Souk - water bus terminal",
          "public_transport": "station"
        }
      },
      {
        "type": "node",
        "id": 3556699367,
        "lat": 25.2625884,
        "lon": 55.3114086,
        "tags": {
          "amenity": "ferry_terminal",
          "ferry": "yes",
          "name": "Baniyas - water bus terminal",
          "name:en": "Baniyas - water bus terminal",
          "name:ru": "Общественная лодка Creek",
          "public_transport": "station",
          "wheelchair": "limited"
        }
      },
      {
        "type": "node",
        "id": 3556724538,
        "lat": 25.2670783,
        "lon": 55.3035371,
        "tags": {
          "amenity": "ferry_terminal",
          "ferry": "yes",
          "name": "السبخة",
          "name:ar": "السبخة",
          "name:en": "Al Sabkha",
          "name:uk": "Себха",
          "public_transport": "station",
          "wheelchair": "limited"
        }
      },
      {
        "type": "node",
        "id": 3722004537,
        "lat": 26.2078328,
        "lon": 56.2452032,
        "tags": {
          "amenity": "ferry_terminal",
          "ferry": "yes",
          "public_transport": "station"
        }
      },
      {
        "type": "node",
        "id": 3722072865,
        "lat": 25.9374374,
        "lon": 56.4313884,
        "tags": {
          "amenity": "ferry_terminal"
        }
      },
      {
        "type": "node",
        "id": 4081650613,
        "lat": 26.6986874,
        "lon": 55.9112048,
        "tags": {
          "fixme": "please verify",
          "note": "mole head (bing)",
          "seamark:type": "light_minor"
        }
      },
      {
        "type": "node",
        "id": 4081650614,
        "lat": 26.6989857,
        "lon": 55.9120953,
        "tags": {
          "amenity": "ferry_terminal",
          "ferry": "yes",
          "fixme": "to be verified",
          "note": "mole head",
          "public_transport": "station",
          "seamark:type": "light_minor"
        }
      },
      {
        "type": "node",
        "id": 4081672374,
        "lat": 26.7177571,
        "lon": 55.9773783,
        "tags": {
          "fixme": "please verify - mole head",
          "seamark:light:colour": "green",
          "seamark:signal_station_traffic:category": "dock",
          "seamark:type": "signal_station_traffic"
        }
      },
      {
        "type": "node",
        "id": 4081672375,
        "lat": 26.7191174,
        "lon": 55.9780079,
        "tags": {
          "fixme": "please verify - mole head starboard",
          "seamark:light:colour": "red",
          "seamark:signal_station_traffic:category": "dock",
          "seamark:type": "signal_station_traffic"
        }
      },
      {
        "type": "node",
        "id": 4081767098,
        "lat": 26.7363925,
        "lon": 56.0076893,
        "tags": {
          "fixme": "please verify mole head",
          "seamark:light:colour": "red",
          "seamark:signal_station_traffic:category": "dock",
          "seamark:type": "signal_station_traffic"
        }
      },
      {
        "type": "node",
        "id": 4383356319,
        "lat": 25.6461424,
        "lon": 57.7676109,
        "tags": {
          "leisure": "marina",
          "name": "اسکله بندر جاسک",
          "seamark:harbour:category": "marina",
          "seamark:type": "harbour"
        }
      },
      {
        "type": "node",
        "id": 4465328857,
        "lat": 24.5178089,
        "lon": 56.6272578,
        "tags": {
          "seamark:buoy_lateral:colour": "green",
          "seamark:light:colour": "green",
          "seamark:topmark:colour": "green",
          "seamark:topmark:shape": "cone, point up",
          "seamark:type": "buoy_lateral"
        }
      },
      {
        "type": "node",
        "id": 4465332306,
        "lat": 24.5178023,
        "lon": 56.6300609,
        "tags": {
          "seamark:buoy_lateral:colour": "red",
          "seamark:buoy_lateral:shape": "pillar",
          "seamark:light:colour": "red",
          "seamark:topmark:colour": "red",
          "seamark:topmark:shape": "cylinder",
          "seamark:type": "buoy_lateral"
        }
      },
      {
        "type": "node",
        "id": 4465332782,
        "lat": 24.5093014,
        "lon": 56.630022,
        "tags": {
          "seamark:buoy_lateral:colour": "red",
          "seamark:light:colour": "red",
          "seamark:topmark:colour": "red",
          "seamark:topmark:shape": "cylinder",
          "seamark:type": "buoy_lateral"
        }
      },
      {
        "type": "node",
        "id": 4465336802,
        "lat": 24.5247728,
        "lon": 56.6300083,
        "tags": {
          "seamark:buoy_lateral:colour": "red",
          "seamark:light:colour": "red",
          "seamark:topmark:colour": "red",
          "seamark:topmark:shape": "cylinder",
          "seamark:type": "buoy_lateral"
        }
      },
      {
        "type": "node",
        "id": 4465336803,
        "lat": 24.5342117,
        "lon": 56.6307568,
        "tags": {
          "seamark:buoy_lateral:colour": "red",
          "seamark:light:colour": "red",
          "seamark:topmark:colour": "red",
          "seamark:topmark:shape": "cylinder",
          "seamark:type": "buoy_lateral"
        }
      },
      {
        "type": "node",
        "id": 4465340205,
        "lat": 24.5815857,
        "lon": 56.6331724,
        "tags": {
          "seamark:buoy_safe_water:colour": "red;white",
          "seamark:buoy_safe_water:colour_pattern": "vertical",
          "seamark:buoy_safe_water:shape": "pillar",
          "seamark:light:character": "LFl",
          "seamark:light:colour": "white",
          "seamark:light:period": "10",
          "seamark:radar_transponder:category": "racon",
          "seamark:topmark:colour": "red",
          "seamark:topmark:shape": "sphere",
          "seamark:type": "buoy_safe_water"
        }
      },
      {
        "type": "node",
        "id": 4465365228,
        "lat": 24.7495869,
        "lon": 56.4747872,
        "tags": {
          "seamark:buoy_lateral:colour": "red",
          "seamark:type": "buoy_lateral"
        }
      },
      {
        "type": "node",
        "id": 4465365229,
        "lat": 24.7497191,
        "lon": 56.4731218,
        "tags": {
          "seamark:buoy_lateral:colour": "green",
          "seamark:type": "buoy_lateral"
        }
      },
      {
        "type": "node",
        "id": 4465375049,
        "lat": 24.5109645,
        "lon": 56.6308434,
        "tags": {
          "seamark:light:character": "Fl",
          "seamark:light:colour": "red",
          "seamark:light:group": "2",
          "seamark:light:height": "10",
          "seamark:light:period": "4",
          "seamark:light:range": "5",
          "seamark:type": "light_minor"
        }
      },
      {
        "type": "node",
        "id": 4465375050,
        "lat": 24.5092353,
        "lon": 56.6266598,
        "tags": {
          "seamark:light:character": "Fl",
          "seamark:light:colour": "green",
          "seamark:light:group": "2",
          "seamark:light:height": "10",
          "seamark:light:period": "4",
          "seamark:light:range": "5",
          "seamark:type": "light_minor"
        }
      },
      {
        "type": "node",
        "id": 4465378435,
        "lat": 24.5259401,
        "lon": 56.6085574,
        "tags": {
          "seamark:light:character": "Iso",
          "seamark:light:colour": "red",
          "seamark:light:period": "4",
          "seamark:type": "light_minor"
        }
      },
      {
        "type": "node",
        "id": 4465378436,
        "lat": 24.5239733,
        "lon": 56.6069735,
        "tags": {
          "seamark:light:character": "Iso",
          "seamark:light:colour": "green",
          "seamark:light:period": "4",
          "seamark:type": "light_minor"
        }
      },
      {
        "type": "node",
        "id": 4465428699,
        "lat": 24.5247889,
        "lon": 56.6277172,
        "tags": {
          "seamark:buoy_lateral:colour": "green",
          "seamark:light:colour": "green",
          "seamark:topmark:colour": "green",
          "seamark:topmark:shape": "cone, point up",
          "seamark:type": "buoy_lateral"
        }
      },
      {
        "type": "node",
        "id": 4465444943,
        "lat": 24.5434664,
        "lon": 56.6303636,
        "tags": {
          "seamark:buoy_lateral:colour": "red",
          "seamark:light:colour": "red",
          "seamark:topmark:colour": "red",
          "seamark:topmark:shape": "cylinder",
          "seamark:type": "buoy_lateral"
        }
      },
      {
        "type": "node",
        "id": 4465920244,
        "lat": 24.529775,
        "lon": 56.6241782,
        "tags": {
          "seamark:light:character": "Iso",
          "seamark:light:colour": "white",
          "seamark:light:height": "9",
          "seamark:light:period": "4",
          "seamark:light:range": "9",
          "seamark:type": "light_minor"
        }
      },
      {
        "type": "node",
        "id": 4465942401,
        "lat": 24.5878123,
        "lon": 56.6087656,
        "tags": {
          "seamark:buoy_special_purpose:colour": "yellow",
          "seamark:light:character": "Fl",
          "seamark:light:colour": "yellow",
          "seamark:light:period": "3",
          "seamark:light:range": "3",
          "seamark:name": "No.1",
          "seamark:topmark:colour": "yellow",
          "seamark:topmark:shape": "x-shape",
          "seamark:type": "buoy_special_purpose"
        }
      },
      {
        "type": "node",
        "id": 4465946634,
        "lat": 24.585614,
        "lon": 56.6141147,
        "tags": {
          "seamark:buoy_special_purpose:colour": "yellow",
          "seamark:light:character": "Fl",
          "seamark:light:colour": "yellow",
          "seamark:light:period": "3",
          "seamark:light:range": "3",
          "seamark:name": "No.2",
          "seamark:topmark:colour": "yellow",
          "seamark:topmark:shape": "x-shape",
          "seamark:type": "buoy_special_purpose"
        }
      },
      {
        "type": "node",
        "id": 4465950636,
        "lat": 24.579018,
        "lon": 56.6153541,
        "tags": {
          "seamark:buoy_special_purpose:colour": "yellow",
          "seamark:light:character": "Fl",
          "seamark:light:colour": "yellow",
          "seamark:light:period": "3",
          "seamark:light:range": "3",
          "seamark:name": "No.3",
          "seamark:topmark:colour": "yellow",
          "seamark:topmark:shape": "x-shape",
          "seamark:type": "buoy_special_purpose",
          "source": "http://www.mod.gov.om/ar-OM/RNO/HydrographicOceanicServices/Documents/notice2014/Mon2/OMAN%20N2M%2002-14.pdf",
          "source:date": "2014-05"
        }
      },
      {
        "type": "node",
        "id": 4465953327,
        "lat": 24.5818413,
        "lon": 56.6078461,
        "tags": {
          "seamark:buoy_special_purpose:colour": "yellow",
          "seamark:light:character": "Fl",
          "seamark:light:colour": "yellow",
          "seamark:light:period": "3",
          "seamark:light:range": "3",
          "seamark:name": "No.4",
          "seamark:topmark:colour": "yellow",
          "seamark:topmark:shape": "x-shape",
          "seamark:type": "buoy_special_purpose",
          "source": "http://www.mod.gov.om/ar-OM/RNO/HydrographicOceanicServices/Documents/notice2014/Mon2/OMAN%20N2M%2002-14.pdf"
        }
      }
    ]
  }
}
